,company_name,company_number,company_status,company_type,date_of_cessation,country,date_of_creation,address_line_1,locality,postal_code,address_line_2,region,country,SICCODE_0,Value,date_of_creation_month,date_of_cessation_month,coordinates,latitude,longitude
0,NEW LAL GOLAP LTD,7805572,dissolved,ltd,2018-06-11,England,2011-11-10,187 London Road,Burgess Hill,RH15 8LH,0,0,England,56101,True,11,06,RH15 8LH,50.95798001203593,-0.13913003734273843
1,BEXHILL ENTERPRISE LIMITED,7805866,dissolved,ltd,2014-09-30,England,2011-11-10,17-21 Cooden Sea Road,Bexhill-On-Sea,TN39 4SJ,0,East Sussex,England,56101,True,11,09,TN39 4SJ,50.84454997947651,0.43361001668199606
2,DUGGAN AND HURST LIMITED,7803991,dissolved,ltd,2017-02-05,0,2011-10-10,Gough House,Kingston Upon Thames,KT1 1DA,57 Eden Street,Surrey,0,56101,True,10,02,KT1 1DA,51.410310003631906,-0.3025100102194074
3,BLUE THAI KITCHEN LTD,7806028,dissolved,ltd,2021-04-12,0,2011-11-10,1 Radian Court,Milton Keynes,MK5 8PJ,Knowlhill,0,0,56101,True,11,04,MK5 8PJ,52.02554999479352,-0.7714199930296388
4,DELHICIOUS SPICE LIMITED,7805431,dissolved,ltd,2017-01-17,0,2011-11-10,139 Wilbraham Road,Manchester,M14 7DS,Fallowfield,0,0,56101,True,11,01,M14 7DS,53.44348998435004,-2.234250019413537
5,ACHA HAI LIMITED,7804640,dissolved,ltd,2016-03-15,United Kingdom,2011-11-10,76 George Street,Corby,NN17 1QE,0,Northamptonshire,United Kingdom,56101,True,11,03,NN17 1QE,52.489419981133864,-0.7041800304801029
6,VP1 LIMITED,7805020,dissolved,ltd,2015-05-05,England,2011-11-10,27 High View Close,Leicester,LE4 9LJ,Hamilton Office Park,0,England,56101,True,11,05,LE4 9LJ,52.65736000270459,-1.0841199667584647
7,MANAKAMANA FOOD LIMITED,7806874,dissolved,ltd,2015-02-24,0,2011-12-10,54 Walsall Street,Wolverhampton,WV1 3LL,0,0,0,56101,True,12,02,WV1 3LL,52.58404999160396,-2.118710010367778
8,CS CAMBRIDGE LIMITED,7807566,dissolved,ltd,2018-02-13,England,2011-12-10,Quern House Mill Court,Cambridge,CB22 5LD,Great Shelford,0,England,56101,True,12,02,CB22 5LD,52.14960999886952,0.14002002782189038
9,GURKHA TANDOORI (UK) LIMITED,7807794,dissolved,ltd,2017-10-10,0,2011-12-10,36 Chorley Road Swinton,Manchester,M27 5AF,0,0,0,56101,True,12,10,M27 5AF,53.509150000060515,-2.3341000277242188
10,APOLLONIA CAFE LTD,7808130,dissolved,ltd,2016-11-15,0,2011-10-13,99 South End,Croydon,CR0 1BG,0,0,0,56101,True,10,11,CR0 1BG,51.36452000186057,-0.09863999676827007
11,FRITH STREET BARS LIMITED,7807947,dissolved,ltd,2014-09-23,0,2011-12-10,925 Finchley Road,London,NW11 7PE,0,0,0,56101,True,12,09,NW11 7PE,51.57414000089008,-0.19628003248772075
12,BODRUM GRILL (FELIXSTOWE) LIMITED,7808949,dissolved,ltd,2015-07-04,0,2011-10-13,Bank House 129,Ipswich,IP6 8DH,High Street Needham Market,Suffolk,0,56101,True,10,07,IP6 8DH,52.15635001294146,1.0492000361202258
13,ACEBROOK SOLUTIONS LIMITED,7808841,dissolved,ltd,2016-11-25,0,2011-10-13,Olympia House,London,NW11 8RQ,Armitage Road,0,0,56101,True,10,11,NW11 8RQ,51.57286000045616,-0.20012003378948862
14,MAUSAMS LIMITED,7809023,dissolved,ltd,2014-09-12,0,2011-10-13,115 High Road,Bedford,MK45 3AX,Cotton End,0,0,56101,True,10,09,MK45 3AX,52.09390998915487,-0.4191499764188791
15,KITTY RESTAURANTS LIMITED,7809225,dissolved,ltd,2018-03-27,0,2011-10-13,1st Floor,London,N3 2LT,314 Regents Park Road,0,0,56101,True,10,03,N3 2LT,51.59946001209295,-0.1954000164733145
16,PADRON LIMITED,7809977,active,ltd,1970-01-01,United Kingdom,2011-10-14,13 Harrow Place,London,E1 7DB,0,0,United Kingdom,56101,True,10,01,E1 7DB,51.516109989730694,-0.07730998102451281
17,PAPRIKA CLUB LTD,7809988,active,ltd,1970-01-01,England,2011-10-14,57 Alfred Street,Birmingham,B12 8JP,C/O Kaiser Nouman Nathan Llp,0,England,56101,True,10,01,B12 8JP,52.45760998803078,-1.876360020542677
18,BOMBAY KHANA LIMITED,7809473,dissolved,ltd,2015-10-11,0,2011-10-13,39 Ship Street,Brighton,BN1 1AB,0,East Sussex,0,56101,True,10,10,BN1 1AB,50.8229999806839,-0.14169003821055526
19,R HOUSE MANCHESTER LIMITED,7810581,dissolved,ltd,2019-06-05,0,2011-10-14,First Floor,Clifton,BS8 2QB,141 Whiteladies Road,Bristol,0,56101,True,10,06,BS8 2QB,51.46613000029052,-2.610899974876503
20,RUILUCI LIMITED,7810502,dissolved,ltd,2019-08-23,0,2011-10-14,6th Floor Walker House,Liverpool,L2 3YL,Exchange Flags,0,0,56101,True,10,08,L2 3YL,53.40773001937555,-2.9924899726139813
21,SARA 786 LIMITED,7812400,dissolved,ltd,2020-09-22,0,2011-10-17,Clarence House,Market Harborough,LE16 7NE,35 Clarence Street,Leicestershire,0,56101,True,10,09,LE16 7NE,52.479070007092815,-0.9143399917121826
22,MAGIC GUSTO LIMITED,7803486,liquidation,ltd,1970-01-01,0,2011-10-10,4th Floor Fountain Precinct,Sheffield,S1 2JA,Leopold Street,0,0,56101,True,10,01,S1 2JA,53.3811100168997,-1.472090017736008
23,LZ LONDON LIMITED,7810872,dissolved,ltd,2017-07-24,0,2011-10-14,1a Pudding Lane,London,EC3R 8AB,0,0,0,56101,True,10,07,EC3R 8AB,51.510349987778056,-0.08531997915605416
24,BENGAL PARADISE OF HULL LTD,7812582,dissolved,ltd,2016-12-20,0,2011-10-17,Unit 2-3 88 Mile End Road,London,E1 4UN,0,0,0,56101,True,10,12,E1 4UN,51.52053999319699,-0.05173000509466874
25,JUN (CORNWALL) LTD,7811224,dissolved,ltd,2015-07-04,0,2011-10-14,Plaza Building,Lewisham,SE13 5PT,102 Lee High Road,London,0,56101,True,10,07,SE13 5PT,51.46120001629981,-0.006330013278102342
26,BEN ASLAN LTD,7811502,dissolved,ltd,2014-09-09,England,2011-10-17,152 Stoke Newington Road,London,N16 7XA,0,0,England,56101,True,10,09,N16 7XA,51.55544999127994,-0.07434999573712275
27,COVENTRY HOTELS & RESTURANTS LIMITED,7813122,dissolved,ltd,2015-05-19,United Kingdom,2011-10-18,1 & 2 Mercia Village,Coventry,CV4 8HX,Torwood Close Westwood Business Park,West Midlands,United Kingdom,56101,True,10,05,CV4 8HX,52.38875001314503,-1.5762800078728674
28,JUST PUBS AND DINING LIMITED,7812637,dissolved,ltd,2017-07-07,0,2011-10-17,Olympia House,London,NW11 8RQ,Armitage Road,0,0,56101,True,10,07,NW11 8RQ,51.57286000045616,-0.20012003378948862
29,N STOCK LIMITED,7814498,dissolved,ltd,2016-08-03,0,2011-10-18,Winston Churchill House,Birmingham,B2 4BG,Ethel Street,West Midlands,0,56101,True,10,08,B2 4BG,52.47917000319771,-1.9012499982031272
30,GOLDEN LION RESTAURANT LTD,7816670,dissolved,ltd,2021-02-28,0,2011-10-19,72 Exeter Road,Cullompton,EX15 1DZ,0,0,0,56101,True,10,02,EX15 1DZ,50.850729998597274,-3.3946299661857324
31,OSTERIA DA FABRIZIO LIMITED,7816087,dissolved,ltd,2018-04-30,0,2011-10-19,Concorde House Grenville Place,London,NW7 3SA,Mill Hill,0,0,56101,True,10,04,NW7 3SA,51.61597998888044,-0.25865002547328686
32,4 CORNERS RESTAURANTS LTD,7816725,dissolved,ltd,2014-10-21,United Kingdom,2011-10-20,18 Wesley Street,Southport,PR8 1BN,0,Merseyside,United Kingdom,56101,True,10,10,PR8 1BN,53.64538999909786,-3.004120030907984
33,HEALTHY LIVING CUISINE LTD,7819251,dissolved,ltd,2021-03-16,England,2011-10-21,Georgian House Market Place,Newark,NG22 0LL,Tuxford,Nottinghamshire,England,56101,True,10,03,NG22 0LL,53.23089998365887,-0.8981200032393133
34,AKMAL'S LIMITED,7818374,dissolved,ltd,2016-05-07,United Kingdom,2011-10-20,105-107 Portland Street,Manchester,M1 6DF,0,0,United Kingdom,56101,True,10,05,M1 6DF,53.47737998863559,-2.240139982774906
35,THE GREENROOM NEWBURY LTD,7818227,dissolved,ltd,2015-11-08,0,2011-10-20,11 Dart Close,Thatcham,RG18 3DR,0,Berkshire,0,56101,True,10,11,RG18 3,51.413965000000076,-1.2658944959999303
36,GREENSTONE CATERING LIMITED,7824916,dissolved,ltd,2016-12-20,0,2011-10-27,18 The Ropewalk,Nottingham,NG1 5DT,0,0,0,56101,True,10,12,NG1 5DT,52.954960019772386,-1.1613000282837618
37,NEW GOSFORTH RESTAURANT LTD,7827492,dissolved,ltd,2014-10-21,England,2011-10-28,12 Cottage Farm,Newcastle Upon Tyne,NE7 7RF,0,0,England,56101,True,10,10,NE7 7RF,54.99884000280818,-1.5646399751140905
38,WOODY'S FOOD EMPORIUM LTD,7827088,dissolved,ltd,2017-03-01,0,2011-10-28,Ty Mawr Gell,Abergele,LL22 8RF,Llangernyw,Clwyd,0,56101,True,10,03,LL22 8RF,53.21756001711711,-3.71219999329756
39,CORCASTLE LIMITED,7827337,dissolved,ltd,2014-10-21,England,2011-10-28,3 Chester Road,Chester,WA6 0JE,Hapsford,Cheshire,England,56101,True,10,10,WA6 0JE,53.261840019031354,-2.780309972716651
40,S W MIDLANDS LIMITED,7829704,dissolved,ltd,2016-02-02,0,2011-10-31,167-170 Stafford Street,Wolverhampton,WV1 1NA,0,0,0,56101,True,10,02,WV1 1NA,52.58790000928002,-2.126000003016543
41,BABA (KETTERING) LIMITED,7830129,dissolved,ltd,2016-02-02,0,2011-01-11,Clarence House,Market Harborough,LE16 7NE,35 Clarence Street,Leicestershire,0,56101,True,01,02,LE16 7NE,52.479070007092815,-0.9143399917121826
42,PIZZA LOUNGE LIMITED,7830081,dissolved,ltd,2017-09-26,0,2011-01-11,La Tavernetta,Southampton,SO14 7FJ,1-3 Civic Centre Road,Hampshire,0,56101,True,01,09,SO14 7FJ,50.90674998746567,-1.4051399852173176
43,FREEGAIN LTD,7831240,dissolved,ltd,2019-10-15,0,2011-01-11,8 Chapel Hill,Stansted,CM24 8AG,0,Essex,0,56101,True,01,10,CM24 8AG,51.90235001589281,0.19851003782753196
44,RAJPUT SPICE LIMITED,7834103,dissolved,ltd,2017-06-13,0,2011-03-11,The Cross And Bowling Green Pub,Redditch,B98 9DR,Alcester Road Beoley,West Midlands,0,56101,True,03,06,B98 9,52.32409000000007,-1.8979432069999689
45,FD NOT LIMITED,7834231,dissolved,ltd,2019-08-23,0,2011-03-11,No 1 Whitehall Riverside,Leeds,LS1 4BN,0,West Yorkshire,0,56101,True,03,08,LS1 4BN,53.794759998002434,-1.5537399805866698
46,THE PACK RESTAURANT & BAR LIMITED,7835202,dissolved,ltd,2021-07-20,0,2011-04-11,2-3 Winckley Court Chapel Street,Preston,PR1 8BU,0,Lancashire,0,56101,True,04,07,PR1 8BU,53.75725001737348,-2.7030299989054924
47,T MANAGEMENT LIMITED,7837715,dissolved,ltd,2015-05-19,0,2011-07-11,Winston Churchill House,Birmingham,B2 4BG,Ethel Street,West Midlands,0,56101,True,07,05,B2 4BG,52.47917000319771,-1.9012499982031272
48,NEW CROMBIES RESTAURANT LTD,7838550,dissolved,ltd,2016-12-07,United Kingdom,2011-08-11,New Crombies Restaurant,Darlington,DL1 1PD,36-40 Tubwell Row,County Durham,United Kingdom,56101,True,08,12,DL1 1PD,54.52476002020984,-1.553479973950175
49,JADOO LTD,7847048,dissolved,ltd,2019-04-23,England,2011-11-14,15 Church Lane,Middlesbrough,TS5 7EQ,Acklam,0,England,56101,True,11,04,TS5 7EQ,54.54485001719783,-1.2563300231734047
50,PRITIRAJ LTD,7845873,dissolved,ltd,2015-06-23,0,2011-11-14,Unit 2-3 88 Mile End Road,London,E1 4UN,0,0,0,56101,True,11,06,E1 4UN,51.52053999319699,-0.05173000509466874
51,COOKING APE LIMITED,7847851,dissolved,ltd,2015-01-27,0,2011-11-15,3 Geoffrey Road,Solihull,B90 2HW,Shirley,West Midlands,0,56101,True,11,01,B90 2HW,52.410960002993676,-1.8418499649697253
52,YI PIN CHINA LTD,7848127,dissolved,ltd,2015-11-24,0,2011-11-15,3rd Floor 19 Gerrard Street,London,WID 6JG,0,0,0,56101,True,11,11,Wid,50.94382000000007,17.297510000000045
53,KADAM HATA LIMITED,7848492,dissolved,ltd,2019-12-07,0,2011-11-15,Olympia House,London,NW11 8RQ,Armitage Road,0,0,56101,True,11,12,NW11 8RQ,51.57286000045616,-0.20012003378948862
54,THE MERMAID'S SLIPPER LIMITED,7850495,active,ltd,1970-01-01,England,2011-11-16,The Norfolk Clinical Park Rowan House,Norwich,NR10 5RH,Buxton,Norfolk,England,56101,True,11,01,NR10 5RH,52.76085999457206,1.280109985396308
55,ROLL WITH US LTD,7851112,dissolved,ltd,2015-10-03,0,2011-11-17,2 Bramshot Way,Watford,WD19 7PS,0,0,0,56101,True,11,10,WD19 7PS,51.62999997922685,-0.4062300270452397
56,IKY'S CUISINE LIMITED,7850642,dissolved,ltd,2018-02-24,0,2011-11-17,90 Berry Lane,Preston,PR3 3WH,Longridge,0,0,56101,True,11,02,PR3 3WH,53.832869997170235,-2.6060399797773073
57,S & C NEPAL LIMITED,7848942,dissolved,ltd,2017-01-17,England,2011-11-16,22 High Street,Woking,GU21 2PE,Knaphill,Surrey,England,56101,True,11,01,GU21 2PE,51.31835998097358,-0.616740016553905
58,RAJMAHAL (FROMES HILL) LTD,7849705,dissolved,ltd,2015-03-17,0,2011-11-16,Fromes Hill Fromes,Ledbury,HR8 1HT,Ledbury,Herefordshire,0,56101,True,11,03,HR8 1HT,52.116129995377804,-2.465149994224845
59,FAHRENHEIT UK LTD,7852634,dissolved,ltd,2020-04-16,0,2011-11-18,116 High Street,Staines-Upon-Thames,TW18 4BY,0,Middlesex,0,56101,True,11,04,TW18 4BY,51.43514998323988,-0.508650010688541
60,RJD CATERING LIMITED,7854059,dissolved,ltd,2020-02-18,0,2011-11-21,18 Hill Top Road,Northwich,CW8 3RA,Acton Bridge,Cheshire,0,56101,True,11,02,CW8 3RA,53.26947999804722,-2.6039699849690976
61,FLING FLONG LTD,7852101,dissolved,ltd,2017-07-27,0,2011-11-18,3 Field Court,London,WC1R 5EF,0,0,0,56101,True,11,07,WC1R 5EF,51.51912001498002,-0.1133899670622327
62,FAT BELLY (BIRMINGHAM) LTD,7852776,dissolved,ltd,2015-06-10,0,2011-11-18,15 Highfield Road,Birmingham,B28 0EL,Hall Green,West Midlands,0,56101,True,11,06,B28 0EL,52.428509989952914,-1.843070034795943
63,SONALI GHAR LTD,7852406,dissolved,ltd,2016-03-05,0,2011-11-18,339 Two Mile Hill Road,Bristol,BS15 1AN,Kingswood,0,0,56101,True,11,03,BS15 1AN,51.46333999999953,-2.5140800245637536
64,THE LAUNDRY (LIVERPOOL) LIMITED,7852761,dissolved,ltd,2016-05-07,England,2011-11-18,99-101 Lark Lane,Liverpool,L17 8UP,0,0,England,56101,True,11,05,L17 8UP,53.3813600071619,-2.9459099764683856
65,FORINS LIMITED,7853512,dissolved,ltd,2015-08-12,0,2011-11-18,Oakwell House 12a Oakwell Avenue,Batley,WF17 8QA,Carlinghow,West Yorkshire,0,56101,True,11,08,WF17 8QA,53.71965998956918,-1.6598999694268741
66,RICKFORD LIMITED,7852440,dissolved,ltd,2014-09-30,England,2011-11-18,Quantum House,Chertsey,KT16 9AX,Guildford Street,Surrey,England,56101,True,11,09,KT16 9AX,51.38979998947576,-0.5057300070793076
67,MULDECK LTD,7853188,dissolved,ltd,2020-09-22,England,2011-11-18,59 Brackley Crescent,Basildon,SS13 1RA,0,0,England,56101,True,11,09,SS13 1RA,51.58208001013011,0.4996900076510826
68,CELTIC CARVERIES & ALEHOUSE LIMITED,7856504,dissolved,ltd,2018-09-13,0,2011-11-22,10 St Helens Road,Swansea,SA1 4AW,0,0,0,56101,True,11,09,SA1 4AW,51.61876001470665,-3.9512399695586566
69,THE ORIGINAL ALPHABET SOUP LIMITED,7804332,dissolved,ltd,2019-03-26,0,2011-10-10,13 Bowes Street,Blyth,NE24 1BD,0,Northumberland,0,56102,True,10,03,NE24 1BD,55.1274699881335,-1.5125399928132595
70,SEYMOUR CAFE LTD,7804464,dissolved,ltd,2020-03-31,0,2011-10-10,Highfield House 149b Ermin Street,Gloucester,GL3 4HG,Brockworth,Gloucestershire,0,56102,True,10,03,GL3 4HG,51.84410999614937,-2.15358995932786
71,COOKVILLE RESTAURANT LTD,7803397,dissolved,ltd,2018-12-18,0,2011-10-10,563 City Road,Sheffield,S2 1GL,0,0,0,56102,True,10,12,S2 1GL,53.365219982045346,-1.4354099712499533
72,CANDAN LTD,7804802,dissolved,ltd,2020-03-17,0,2011-11-10,10 The Broadway,St. Ives,PE27 5BX,0,Cambridgeshire,0,56102,True,11,03,PE27 5BX,52.32494998365871,-0.07667999718182728
73,LAHORI MASALA & GRILL LTD.,7806159,dissolved,ltd,2016-12-20,0,2011-11-10,906 Uxbridge Road,Hayes,UB4 0RW,0,0,0,56102,True,11,12,UB4 0RW,51.521889982522424,-0.4184599781494853
74,WWW.LUNCHINABAG.CO.UK LIMITED,7810115,dissolved,ltd,2016-12-20,England,2011-10-14,3 Silchester Corner,Southend-On-Sea,SS3 0PX,Great Wakering,Essex,England,56102,True,10,12,SS3 0PX,51.55295000483886,0.7612400039849945
75,MLC ENTERPRISES LTD,7812114,dissolved,ltd,2021-03-16,0,2011-10-17,247 Hazel Road,Erith,DA8 2NB,0,Kent,0,56102,True,10,03,DA8 2NB,51.46836998009513,0.19311997117154078
76,GULCEM LTD,7812724,dissolved,ltd,2016-01-03,United Kingdom,2011-10-17,147 Cranbrook Road,Ilford,IG1 4PU,0,Essex,United Kingdom,56102,True,10,01,IG1 4PU,51.56214998176421,0.06840999241379109
77,K STAND LTD.,7815039,dissolved,ltd,2019-12-11,0,2011-10-19,Colman House,Birmingham,B3 1RS,121 Livery Street,0,0,56102,True,10,12,B3 1RS,52.48816001344852,-1.9067699843583625
78,KELTIX LIMITED,7817603,dissolved,ltd,2016-12-20,0,2011-10-20,101 Kingsway Holborn,London,WC2B 6QX,0,0,0,56102,True,10,12,WC2B 6QX,51.51641001995486,-0.11981997644519993
79,FLEXLOG LIMITED,7817387,dissolved,ltd,2018-04-26,0,2011-10-20,212 Mile End Road,London,E1 4LJ,0,0,0,56102,True,10,04,E1 4LJ,51.52132998757125,-0.04792998547102911
80,TASTE CATERING LIMITED,7820925,dissolved,ltd,2014-10-21,United Kingdom,2011-10-24,353 Southwark Park Road,London,SE16 2JN,0,0,United Kingdom,56102,True,10,10,SE16 2JN,51.49311997997253,-0.05800997841078015
81,SY CATERING LTD,7824598,dissolved,ltd,2016-06-09,0,2011-10-26,41 Palmerston Road,Walthamstow,E17 6PR,0,London,0,56102,True,10,06,E17 6PR,51.58674001301952,-0.029730023830069285
82,EMILE'S  PENARTH LIMITED,7825387,dissolved,ltd,2014-10-14,Wales,2011-10-27,The Old Coach House,Penarth,CF64 2UW,3a Cornerswell Road,Vale Of Glamorgan,Wales,56102,True,10,10,CF64 2UW,51.43701998583833,-3.1802600264457226
83,FARMHOUSE WHITBEY PARADE LIMITED,7828206,dissolved,ltd,2015-03-31,0,2011-10-31,5 Whitbey Parade,South Ruislip,HA4 9EA,Whitbey Road,Middlesex,0,56102,True,10,03,HA4 9EA,51.567779980398626,-0.3958200385774546
84,NOAH'S ARK CAFE LIMITED,7830262,dissolved,ltd,2016-03-29,0,2011-01-11,10 Chapel Road,Ilford,IG1 2AG,0,Essex,0,56102,True,01,03,IG1 2AG,51.557490020784314,0.06991001780605188
85,BIG RICH'S COMMUNITY CAFE LIMITED,7830812,dissolved,ltd,2015-02-24,0,2011-01-11,Court Farm Main Street,Bristol,BS40 6JF,Compton Martin,0,0,56102,True,01,02,BS40 6JF,51.31183001739524,-2.6602800295968905
86,D HOUSE LIMITED,7837464,dissolved,ltd,2015-03-17,0,2011-07-11,Winston Churchill House,Birmingham,B2 4BG,Ethel Street,West Midlands,0,56102,True,07,03,B2 4BG,52.47917000319771,-1.9012499982031272
87,CANOPY ESSEX LIMITED,7841740,dissolved,ltd,2020-01-14,England,2011-10-11,141 Beehive Lane,Ilford,IG4 5DR,0,0,England,56102,True,10,01,IG4 5,51.582228041000064,0.049418549000051826
88,CAFE ROSSIO LIMITED,7848858,active,ltd,1970-01-01,0,2011-11-16,1100 Harrow Road,London,NW10 5NL,0,0,0,56102,True,11,01,NW10 5NL,51.53202001542414,-0.23243998188172554
89,PARATHA WRAPS LIMITED,7849454,dissolved,ltd,2017-06-27,0,2011-11-16,3b Fairfax Street,Coventry,CV1 5SR,0,0,0,56102,True,11,06,CV1 5SR,52.41010999419265,-1.5080099932420978
90,JUST @ LIMITED,7851428,dissolved,ltd,2015-08-12,0,2011-11-17,5 St John'S Ways,London,N19 3QS,0,0,0,56102,True,11,08,N19 3QS,51.565850005282954,-0.13424003503016024
91,THE PARADE CAFE LTD,7850357,dissolved,ltd,2019-07-23,0,2011-11-16,Sea Acres,Skegness,PE25 3BB,Gibraltar Road,Lincolnshire,0,56102,True,11,07,PE25 3BB,53.12250998947886,0.3353900370818508
92,C & G BARS LIMITED,7803532,dissolved,ltd,2016-08-03,0,2011-10-10,451 Saffron Lane,Leicester,LE2 6UG,0,Leicestershire,0,56302,True,10,08,LE2 6UG,52.60356000280174,-1.139370035910673
93,A RICKERBY LIMITED,7805710,dissolved,ltd,2017-03-28,0,2011-11-10,The Ship Inn,Carlisle,CA5 6PE,Thursby,Cumbria,0,56302,True,11,03,CA5 6PE,54.84239999430366,-3.050740008731708
94,OSCAR VEGAS LIMITED,7804975,liquidation,ltd,1970-01-01,0,2011-11-10,"Suite 4, Portfolio House, 3",Dorchester,DT1 1TP,Princes Street,Dorset,0,56302,True,11,01,DT1 1TP,50.71471999898307,-2.4388200055988705
95,FIZZY PUBS LTD,7807051,dissolved,ltd,2015-12-15,Wales,2011-12-10,32 Elgin Street,Swansea,SA5 8QF,Manselton,0,Wales,56302,True,12,12,SA5 8QF,51.63993001991881,-3.9514599945170232
96,STAG'S HEAD (KNAITH PARK) LIMITED,7808901,dissolved,ltd,2015-10-27,0,2011-10-13,107 Cleethorpe Road,Grimsby,DN31 3ER,0,N E Lincs,0,56302,True,10,10,DN31 3ER,53.575179992977155,-0.0722899753936872
97,PIPINNS HERITAGE PUB LTD,7810204,dissolved,ltd,2017-03-01,0,2011-10-14,The Rock Inn Hoath Corner,Edenbridge,TN8 7BS,Chiddinstone Hoath,Kent,0,56302,True,10,03,TN8 7BS,51.167500014960524,0.14006000950004704
98,REGAL TRADE LIMITED,7809417,dissolved,ltd,2018-02-27,0,2011-10-13,51 High Street,Scunthorpe,DN17 4LB,Crowle,North Lincolnshire,0,56302,True,10,02,DN17 4LB,53.60649998002057,-0.8329399772141812
99,HOLDENS INN LIMITED,7810444,dissolved,ltd,2015-09-29,United Kingdom,2011-10-14,6b Parkway,St. Albans,AL3 6PA,Porters Wood,Hertfordshire,United Kingdom,56302,True,10,09,AL3 6PA,51.771530006905806,-0.3258700390932461
100,BEANIES BARS LIMITED,7802435,dissolved,ltd,2015-05-19,0,2011-07-10,Layton House 3-5 Westcliffe Drive,Blackpool,FY3 7BJ,Layton Square,0,0,56302,True,07,05,FY3 7BJ,53.82832000675998,-3.0306299789951368
101,HOLYWELL INNS LTD,7803315,dissolved,ltd,2016-12-28,0,2011-10-10,Eagle Point,Segensworth Fareham,PO15 5TD,Little Park Farm Road,Hampshire,0,56302,True,10,12,PO15 5TD,50.87012999731587,-1.2564099865296896
102,WYNDER VETINARI & POONS LTD,7812685,dissolved,ltd,2016-02-16,0,2011-10-17,Queens Head Hotel,Rye,TN31 7LH,Landgate,East Sussex,0,56302,True,10,02,TN31 7LH,50.95342997971616,0.7352799925651823
103,SENTRY PUBS LTD,7814291,dissolved,ltd,2016-03-11,0,2011-10-18,Xl Business Solutions Ltd Premier House,Cleckheaton,BD19 3TT,Bradford Road,0,0,56302,True,10,03,BD19 3TT,53.730750001841585,-1.7190600287723612
104,BLACK BULL INN (WELTON) LIMITED,7817085,dissolved,ltd,2021-03-16,0,2011-10-20,9 Lincoln Road,Lincoln,LN2 3HZ,Welton,0,0,56302,True,10,03,LN2 3HZ,53.30499998913379,-0.4840600213427422
105,FRANK'S FRONT ROOM LIMITED,7818005,dissolved,ltd,2014-07-10,England,2011-10-20,93 Bohemia Road,St Leonards On Sea,TN37 6RJ,0,East Sussex,England,56302,True,10,07,TN37 6RJ,50.86243000387327,0.5598500280454175
106,MULBERRY HOSPITALITY LIMITED,7816594,dissolved,ltd,2022-03-22,0,2011-10-19,6 Ickworth Crescent,Ipswich,IP4 5PQ,Bixley Farm,Suffolk,0,56302,True,10,03,IP4 5PQ,52.05354999380816,1.2192400178030312
107,SHAFREE LIMITED,7819035,dissolved,ltd,2016-12-20,0,2011-10-21,Unit 174-176 Station Road,Harrow,HA1 2RH,0,Middlesex,0,56302,True,10,12,HA1 2RH,51.584230010204124,-0.3317299952412611
108,THREE GRACES LTD,7817999,dissolved,ltd,2016-11-25,0,2011-10-20,Saxon House,Cheltenham,GL52 6QX,Saxon Way,Gloucestershire,0,56302,True,10,11,GL52 6QX,51.894989992443016,-2.0591300176731977
109,THE FLYING CLUB CAFE LIMITED,7818119,dissolved,ltd,2015-10-02,0,2011-10-20,The Annexe Treedogan Middle House,Barry,CF62 3BS,Tredogan,South Glamorgan,0,56302,True,10,10,CF62 3BS,51.40100001422735,-3.3386599753697794
110,THE RIFLEMAN (NANTWICH) LIMITED,7820449,dissolved,ltd,2016-06-28,0,2011-10-24,The Rifleman 68 James Hall Street,Cheshire,CW5 5QE,Nantwich,0,0,56302,True,10,06,CW5 5QE,53.07213999008394,-2.5183599919631945
111,B B MANAGEMENT LIMITED,7824754,dissolved,ltd,2016-02-16,0,2011-10-26,107 Cliff Gardens,Scunthorpe,DN15 7BJ,0,South Humberside,0,56302,True,10,02,DN15 7BJ,53.58811000063463,-0.6622700116887188
112,RL FOUNTAINS LIMITED,7825490,dissolved,ltd,2016-11-26,0,2011-10-27,WILSON FIELD LIMITED,Sheffield,S11 9PS,The Manor House 260 Ecclesall Road South,South Yorkshire,0,56302,True,10,11,S11 9PS,53.35347002062642,-1.5161000385489842
113,THE BEER & BOOZE LIMITED,7825044,dissolved,ltd,2016-01-19,England,2011-10-27,35 Muriel Road,Leicester,LE3 6BH,0,0,England,56302,True,10,01,LE3 6BH,52.63436001848166,-1.1563599860092495
114,CROSS KEYS (DARFIELD) LTD,7826632,dissolved,ltd,2017-04-04,0,2011-10-27,The Cross Keys Church Street,Barnsley,S73 9JX,Darfield,South Yorkshire,0,56302,True,10,04,S73 9JX,53.53368999135387,-1.3707200351034885
115,BUCKINGHAMS BLACKPOOL LIMITED,7827886,dissolved,ltd,2016-05-04,United Kingdom,2011-10-28,Carringtons Accountants,Bradford,BD1 4AB,14 Mill Street,West Yorkshire,United Kingdom,56302,True,10,05,BD1 4AB,53.79705001776901,-1.7497299992245416
116,PROGRESSIVE INNS NW LIMITED,7829267,active,ltd,1970-01-01,0,2011-10-31,Hanover Buildings,Liverpool,L1 3DN,11-13 Hanover Street,Merseyside,0,56302,True,10,01,L1 3DN,53.403240001482544,-2.9847600138675148
117,THE GUNMAKERS PUBLIC HOUSE LIMITED,7826465,dissolved,ltd,2019-02-07,0,2011-10-27,14 Gloucester Place Mews,London,W1U 8BA,0,0,0,56302,True,10,02,W1U 8BA,51.51769999485356,-0.1583899744592543
118,BLACK HORSE NW LTD,7828296,dissolved,ltd,2018-08-14,0,2011-10-31,20 Stanley Avenue,Wirral,CH63 5QF,0,0,0,56302,True,10,08,CH63 5QF,53.36378001298931,-3.0362300123256887
119,BAPH LIMITED,7831357,dissolved,ltd,2015-10-11,United Kingdom,2011-01-11,1st Floor,Frinton-On-Sea,CO13 9AB,143 Connaught Avenue,Essex,United Kingdom,56302,True,01,10,CO13 9AB,51.834429987629136,1.244620001523117
120,THE KERRYMAN PUB COMPANY LIMITED,7830599,dissolved,ltd,2017-02-05,0,2011-01-11,35 Ludgate Hill,Birmingham,B3 1EH,0,0,0,56302,True,01,02,B3 1EH,52.48452000435651,-1.9048099601197919
121,LEISURE 24/7 LIMITED,7830672,dissolved,ltd,2015-06-16,0,2011-01-11,Middleton Mill,Taunton,TA3 7PT,Churchstanton,Somerset,0,56302,True,01,06,TA3 7PT,50.89783000801589,-3.1510800231020255
122,FURSTY MEDIA LIMITED,7831606,dissolved,ltd,2014-10-22,0,2011-02-11,Wesley House Huddersfield Road,Batley,WF17 9EJ,Birstall,0,0,56302,True,02,10,WF17 9EJ,53.73122001706213,-1.6594900105425552
123,MORLEY WOOD (BRANDON) LIMITED,7831420,dissolved,ltd,2017-04-25,0,2011-01-11,Innscribe Uk,Bradford,BD14 AB,14 Mill Street,West Yorkshire,0,56302,True,01,04,BD1 4AB,53.79705001776901,-1.7497299992245416
124,RLM SOUTH LTD,7831755,dissolved,ltd,2015-01-09,0,2011-02-11,2 Acorn Court,Wymondham,NR18 9AL,Bridge Industrial Estate,Norfolk,0,56302,True,02,01,NR18 9AL,52.563699987979476,1.1155299754420014
125,RLM WEST LTD,7831710,dissolved,ltd,2014-10-14,England,2011-02-11,2 Acorn Court,Wymondham,NR18 9AL,Bridge Industrial Estate,Norfolk,England,56302,True,02,10,NR18 9AL,52.563699987979476,1.1155299754420014
126,JAM TREE CLAPHAM LTD,7832556,dissolved,ltd,2021-04-13,England,2011-02-11,Aquum,London,SW4 7UL,68-70 Clapham High Street,0,England,56302,True,02,04,SW4 7,51.46181500100005,-0.13182533699995247
127,HQ BAR (GRAVESEND) LTD,7832593,dissolved,ltd,2016-12-07,England,2011-02-11,3a Windmill Street,Gravesend,DA12 1AD,0,Kent,England,56302,True,02,12,DA12 1AD,51.44175999399357,0.36954000609441096
128,BROADOAK ENTERPRISES LIMITED,7837595,dissolved,ltd,2015-06-16,0,2011-07-11,58 High Street,Rochester,ME1 1LD,0,Kent,0,56302,True,07,06,ME1 1LD,51.39020001580482,0.5032000134248165
129,THE SCOTLAND (BIRSTALL) LTD,7836327,dissolved,ltd,2017-10-31,England,2011-04-11,691 Bradford Road,Bradford,BD11 2AU,Birkenshaw,West Yorkshire,England,56302,True,04,10,BD11 2AU,53.75648998830303,-1.6952499755170436
130,A & M BARS LIMITED,7838496,dissolved,ltd,2019-08-17,0,2011-08-11,7 Smithford Walk,Liverpool,L35 1SF,0,0,0,56302,True,08,08,L35 1SF,53.39734999621163,-2.820270025553299
131,KILMARNOCK PUB CO LIMITED,7845082,dissolved,ltd,2016-03-29,0,2011-11-11,"5th Floor, Ergon House",London,SW1P 2AL,Horseferry Road,0,0,56302,True,11,03,SW1P 2AL,51.49494748632188,-0.1267050393515774
132,FERRY HOUSE PUB MANAGEMENT LTD,7846782,dissolved,ltd,2020-11-17,England,2011-11-14,26 Ferry Street,London,E14 3DT,0,0,England,56302,True,11,11,E14 3DT,51.48651998559316,-0.012119980534606611
133,STOKER LEISURE LIMITED,7847078,dissolved,ltd,2016-05-01,England,2011-11-14,15 Olive Street,Sunderland,SR1 3PE,0,0,England,56302,True,11,05,SR1 3PE,54.90312000964914,-1.3859399787084783
134,BRIGHTSTAR LEISURE LTD,7847659,dissolved,ltd,2016-12-07,0,2011-11-15,Abertawe House Ystrad Road,Swansea,SA5 4JB,Fforestfach,0,0,56302,True,11,12,SA5 4JB,51.64604000823854,-4.001450000331488
135,CROSS KEYS (PONTEFRACT) LIMITED,7847852,dissolved,ltd,2016-07-06,0,2011-11-15,Innscribe Uk,Bradford,BD1 4AB,14 Mill Street,West Yorkshire,0,56302,True,11,07,BD1 4AB,53.79705001776901,-1.7497299992245416
136,THE WHEEL INN (U.K) LIMITED,7848262,dissolved,ltd,2017-12-12,0,2011-11-15,81 Roseneath Avenue,Leicester,LE4 7GU,0,0,0,56302,True,11,12,LE4 7GU,52.65895998229223,-1.0978099615768713
137,YOURTUBEZ LIMITED,7850473,dissolved,ltd,2020-01-14,0,2011-11-16,10 Hanover Street,Bromsgrove,B61 7JH,0,Worcestershire,0,56302,True,11,01,B61 7JH,52.33237999600004,-2.064580014936894
138,INVITING INNS LIMITED,7852698,dissolved,ltd,2015-01-09,0,2011-11-18,The King George Moss Lane,Altrincham,WA15 8BA,Hale,Cheshire,0,56302,True,11,01,WA15 8BA,53.38200998184365,-2.3320700145941657
139,ANCIENT & IMPERIAL PUB COMPANY LIMITED,7850053,dissolved,ltd,2019-04-16,0,2011-11-16,Reedham House,Manchester,M3 2PJ,31 King Street West,Lancashire,0,56302,True,11,04,M3 2PJ,53.481720012371284,-2.2496199990853825
140,CHIPPENHAM LEISURE LTD,7850977,dissolved,ltd,2014-12-23,England,2011-11-17,22 Market Place,Chippenham,SN15 3HW,0,0,England,56302,True,11,12,SN15 3HW,51.4573999966762,-2.1135099614567707
141,H & H TAVERN LTD,7855248,dissolved,ltd,2017-09-26,0,2011-11-21,157 Waterloo Road,Wokingham,RG40 2JN,0,Berkshire,0,56302,True,11,09,RG40 2JN,51.40588000016561,-0.8134200334611421
142,PAC MAC LTD,7856494,dissolved,ltd,2015-03-03,0,2011-11-22,The Brick Kiln Public House Norwich Road,Norwich,NR13 5JH,Little Plumstead,Norfolk,0,56302,True,11,03,NR13 5JH,52.66197998200636,1.4184699772943077
143,RIDGE AND FURROW INNS LTD,7856573,dissolved,ltd,2019-01-07,0,2011-11-22,WILSON FIELD LTD,Sheffield,S11 9PS,The Manor House 260 Ecclesall Road South,0,0,56302,True,11,01,S11 9PS,53.35347002062642,-1.5161000385489842
144,BOOTH LEISURE LTD,7854700,dissolved,ltd,2020-05-11,0,2011-11-21,Bulman House Regent Centre,Newcastle Upon Tyne,NE3 3LS,Gosforth,0,0,56302,True,11,05,NE3 3LS,55.01062998781475,-1.6216000363331204
145,THE TALBOT INN GRETTON LTD,7855555,dissolved,ltd,2015-06-16,0,2011-11-21,Federation House,Kettering,NN16 8JS,36/38 Rockingham Road,Northants,0,56302,True,11,06,NN16 8JS,52.40326998401585,-0.7263000405981757
146,HILLARY AND SCOTT LIMITED,7856681,active,ltd,1970-01-01,England,2011-11-22,Four Alls York House,Market Drayton,TF9 2AG,Woodseaves,0,England,56302,True,11,01,TF9 2AG,52.88592000160642,-2.473129985143032
147,THE NEW IVY LEAF CLUB LTD,7806175,receivership,private-limited-guarant-nsc,1970-01-01,0,2011-11-10,38a Suffolk Street,Sunderland,SR2 8JZ,0,Tyne And Wear,0,56301,True,11,01,SR2 8JZ,54.898310012602394,-1.370260036257207
148,FRIAR PARK SOCIAL CLUB LTD,7825728,dissolved,private-limited-guarant-nsc,2017-10-17,0,2011-10-27,334 Adams Hill,Birmingham,B32 3PD,0,West Midlands,0,56301,True,10,10,B32 3PD,52.4395099805852,-2.007920025851547
149,MAD STAR LTD,7845337,dissolved,ltd,2014-10-28,0,2011-11-11,One Great Cumberland Place,London,W1H 7LW,Marble Arch,0,0,56301,True,11,10,W1H 7,51.51492500000006,-0.1588761609999665
150,DELIGHTFULLY LTD,7805488,dissolved,ltd,2017-03-28,0,2011-11-10,49 High Street,Saffron Walden,CB10 1AR,0,Essex,0,56103,True,11,03,CB10 1AR,52.0223499937087,0.2389799618343602
151,KASABA LTD,7804844,dissolved,ltd,2020-11-17,0,2011-11-10,8 The Broadway,St. Ives,PE27 5BN,0,Cambridgeshire,0,56103,True,11,11,PE27 5BN,52.324920018354845,-0.0758100394512553
152,SANTOS KEBAB HOUSE LTD,7803769,dissolved,ltd,2015-09-15,0,2011-10-10,22 Bury Old Road,Salford,M7 4QJ,0,0,0,56103,True,10,09,M7 4QJ,53.51356001268772,-2.2462199638812876
153,TM STAR LONDON LIMITED,7804352,dissolved,ltd,2018-12-18,0,2011-10-10,103 Kenton Road,Harrow,HA3 0AN,0,Middlesex,0,56103,True,10,12,HA3 0AN,51.581130005224196,-0.3183600214861144
154,LH (DEVON) LTD,7804956,dissolved,ltd,2015-02-17,0,2011-11-10,Winston Churchill House,Birmingham,B2 4BG,Ethel Street,West Midlands,0,56103,True,11,02,B2 4BG,52.47917000319771,-1.9012499982031272
155,KC (BOLTON) LIMITED,7805172,dissolved,ltd,2016-03-22,0,2011-11-10,90-92 Bradshawgate,Bolton,BL1 1QQ,0,0,0,56103,True,11,03,BL1 1QQ,53.57703997920129,-2.426110022899735
156,MINOX LTD,7807375,dissolved,ltd,2016-01-26,0,2011-12-10,C/O 174 Bounces Road,London,N9 8LA,0,0,0,56103,True,12,01,N9 8LA,51.627799981100395,-0.047520026586738595
157,S P (HANTS) LIMITED,7807044,dissolved,ltd,2017-01-31,0,2011-12-10,19 Garbett Road,Winchester,SO23 0NY,Winnall,Hampshire,0,56103,True,12,01,SO23 0NY,51.064780001093055,-1.3000099646393153
158,CK FOODS LTD,7805844,dissolved,ltd,2017-12-09,0,2011-11-10,13 Wendover Road,Birmingham,B65 8LU,Rowley Regis,0,0,56103,True,11,12,B65 8LU,52.492790009124576,-2.059060028781687
159,ALHAS LIMITED,7808569,dissolved,ltd,2015-05-26,0,2011-10-13,10 James Reckitt Avenue,Hull,HU8 7TP,0,0,0,56103,True,10,05,HU8 7TP,53.75884999696112,-0.32066001571746483
160,H & A GUILDFORD LIMITED,7808860,dissolved,ltd,2015-05-19,0,2011-10-13,7 Westmoreland House,London,NW10 6RE,Scrubs Lane,0,0,56103,True,10,05,NW10 6RE,51.52948000539536,-0.2369200253099848
161,BEXMILL LIMITED,7808863,dissolved,ltd,2017-03-28,0,2011-10-13,25 Hanbury Road,Newport,CF81 8QT,Bargoed,Cardiff,0,56103,True,10,03,CF81 8QT,51.68886000834817,-3.228859977437594
162,CHICKEN LANE LIMITED,7807979,dissolved,ltd,2015-06-30,0,2011-12-10,179 Firs Lane,Leigh,WN7 4SU,0,Lancashire,0,56103,True,12,06,WN7 4SU,53.49797998252231,-2.538570017804659
163,WORDLOCK LTD,7809926,dissolved,ltd,2014-07-10,United Kingdom,2011-10-14,Winston Churchill House,Birmingham,B2 4BG,Ethel Street,West Midlands,United Kingdom,56103,True,10,07,B2 4BG,52.47917000319771,-1.9012499982031272
164,S&B FRYERS LTD,7810342,dissolved,ltd,2015-08-12,0,2011-10-14,111 Malling Road,Snodland,ME6 5AB,0,Kent,0,56103,True,10,08,ME6 5AB,51.32803998949382,0.44169997816985074
165,SOPHIAN LIMITED,7813052,dissolved,ltd,2016-08-03,0,2011-10-17,114 Hamlet Court Road,Westcliff-On-Sea,SS0 7LP,0,Essex,0,56103,True,10,08,SS0 7LP,51.53918997921943,0.6939299687249161
166,SIZZLES (LEICESTER) LIMITED,7812135,dissolved,ltd,2014-10-21,England,2011-10-17,40 Hall Road,Leicester,LE7 9SX,Scraptoft,Leicestershire,England,56103,True,10,10,LE7 9SX,52.647059984806475,-1.0448400215454683
167,J STOCK LIMITED,7814410,dissolved,ltd,2015-09-06,0,2011-10-18,Winston Churchill House,Birmingham,B2 4BG,Ethel Street,West Midlands,0,56103,True,10,09,B2 4BG,52.47917000319771,-1.9012499982031272
168,CASPER PIZZA LIMITED,7814313,dissolved,ltd,2015-09-06,0,2011-10-18,3 Rossgate,Hemel Hempstead,HP1 3LG,0,Herts,0,56103,True,10,09,HP1 3LG,51.76504999947039,-0.4889699725848402
169,FULL HOUSE (HWK) LTD,7814629,dissolved,ltd,2017-05-13,England,2011-10-18,10-12 New College Parade,London,NW3 5EP,Finchley Road,0,England,56103,True,10,05,NW3 5EP,51.545239995021944,-0.1767800376642299
170,KHAN'S BENFLEET LTD,7815126,dissolved,ltd,2015-02-17,0,2011-10-19,267 Kiln Road,Benfleet,SS7 1RU,0,Essex,0,56103,True,10,02,SS7 1RU,51.559400005060894,0.5971199928769408
171,NUMBER 1 CHEF LIMITED,7815530,dissolved,ltd,2016-11-22,0,2011-10-19,Suite 311 Ajp Business Centre,London,NW2 7HD,152-154 Coles Green Road,0,0,56103,True,10,11,NW2 7HD,51.568750018053095,-0.23561999212745377
172,K STOCK LIMITED,7814495,dissolved,ltd,2015-02-17,0,2011-10-18,Winston Churchill House,Birmingham,B2 4BG,Ethel Street,West Midlands,0,56103,True,10,02,B2 4BG,52.47917000319771,-1.9012499982031272
173,MAC'S GRIDDLE LTD,7815571,dissolved,ltd,2018-03-27,0,2011-10-19,6 Stainer Close,Newton Le Willows,WA12 9WY,0,Merseyside,0,56103,True,10,03,WA12 9WY,53.45956002057508,-2.638620018325099
174,EL TURKISTAN LIMITED,7815535,active,ltd,1970-01-01,0,2011-10-19,9 The Parade,Tadworth,KT20 6AT,Brighton Road,Surrey,0,56103,True,10,01,KT20 6,51.295646513000065,-0.2034049999999752
175,THE CHICKEN PLACE LTD,7816247,dissolved,ltd,2015-03-31,0,2011-10-19,84 Kingsley Road,Hounslow,TW3 1QA,0,0,0,56103,True,10,03,TW3 1QA,51.47243000635524,-0.3564300389757591
176,BESOZ LIMITED,7817677,dissolved,ltd,2020-03-24,0,2011-10-20,117 Hatton Avenue,Slough,SL2 1PJ,0,Berkshire,0,56103,True,10,03,SL2 1PJ,51.53079001304263,-0.6099299716809412
177,EXOBELL LIMITED,7817495,dissolved,ltd,2015-09-06,0,2011-10-20,287 Kentish Town Road,London,NW5 2JS,0,0,0,56103,True,10,09,NW5 2JS,51.548880004113954,-0.14131000272058714
178,BRITTONS OF NEW OSCOTT LIMITED,7819751,dissolved,ltd,2015-07-04,0,2011-10-21,Alexander House,Birmingham,B1 3EG,60 - 61 Tenby Street North,0,0,56103,True,10,07,B1 3EG,52.48627999447578,-1.9141700313958268
179,GLOBAL FAST FOOD LTD,7819923,dissolved,ltd,2016-09-13,Wales,2011-10-24,Suite 11 Tredegar Chambers,Newport,NP20 4AQ,Bridge Street,Gwent,Wales,56103,True,10,09,NP20 4AQ,51.58789998459997,-2.998329979832448
180,APOLLO FAST FOOD LIMITED,7823333,dissolved,ltd,2016-05-07,United Kingdom,2011-10-26,Flat 2 12 Coniscliffe Road,London,N13 5NW,Palmers Green,0,United Kingdom,56103,True,10,05,N13 5NW,51.62190000136471,-0.08929995824084358
181,WATERLOO TAKEAWAY LIMITED,7826137,dissolved,ltd,2015-06-16,0,2011-10-27,109 South Road,Liverpool,L22 0LT,0,0,0,56103,True,10,06,L22 0LT,53.4759999920968,-3.023829992405979
182,POPEYES (MORETON) LIMITED,7827784,dissolved,ltd,2017-11-28,0,2011-10-28,18 Upton Road,Wirral,CH46 0PA,Moreton,Merseyside,0,56103,True,10,11,CH46 0PA,53.39994000429286,-3.1111300285491836
183,ALI BABA LANCASTER LTD,7829434,dissolved,ltd,2022-05-24,0,2011-10-31,95 King Street,Lancaster,LA1 1RH,0,Lancs,0,56103,True,10,05,LA1 1RH,54.04624001777091,-2.8005400313066957
184,WIRRAL LIMITED,7829598,dissolved,ltd,2015-06-16,0,2011-10-31,77 Wallasey Village,Wallasey,CH45 3LE,0,Wirral,0,56103,True,10,06,CH45 3LE,53.422859983249964,-3.0644099708015062
185,MY MR CHICKEN LIMITED,7828826,dissolved,ltd,2014-10-21,0,2011-10-31,159 The Pastures,High Wycombe,HP13 5RP,0,Buckinghamshire,0,56103,True,10,10,HP13 5RP,51.64052999654808,-0.7684900149556313
186,MURAT (UK) LIMITED,7830235,dissolved,ltd,2019-07-25,0,2011-01-11,Craftwork Studios,London,EC1Y 8NA,1-3 Dufferin Street,0,0,56103,True,01,07,EC1Y 8NA,51.52267000243191,-0.0924799684865718
187,AMMURAPI LIMITED,7830805,dissolved,ltd,2020-07-04,England,2011-01-11,21 Edensor Gardens,London,W4 2QY,0,0,England,56103,True,01,07,W4 2QY,51.48216001292792,-0.25384996098179613
188,BENUSEN LIMITED,7831990,dissolved,ltd,2014-04-11,England,2011-02-11,266-268 High Street,Waltham Cross,EN8 7EA,0,Hertfordshire,England,56103,True,02,04,EN8 7EA,51.69124000784532,-0.03383003176833199
189,AFTALA LIMITED,7839074,dissolved,ltd,2022-11-07,0,2011-08-11,C/O Anderson Brookes Insolvency Practitioners Limi 4th Floor Churchgate House,Bolton,BL1 1HL,30 Churchgate,0,0,56103,True,08,11,BL1 1HL,53.579559998391005,-2.4258599907280143
190,SUBEATER LIMITED,7837384,dissolved,ltd,2020-04-05,0,2011-07-11,Quadrant House,London,E1W 1YW,4 Thomas More Square,0,0,56103,True,07,04,E1W 1YW,51.50768999080532,-0.06732000972485253
191,SHUM & MO ENTERPRISE LTD,7843383,dissolved,ltd,2015-06-16,0,2011-11-11,87 North Road,Poole,BH14 0LT,0,Dorset,0,56103,True,11,06,BH14 0LT,50.72494998608016,-1.9592299694005533
192,PIZZA VALO LIMITED,7849013,dissolved,ltd,2017-02-05,0,2011-11-16,293 Green Lanes,London,N13 4XS,Palmers Green,0,0,56103,True,11,02,N13 4XS,51.617049980730314,-0.10957997297381894
193,MANDARIN CHINESE TAKEAWAY LTD,7851151,dissolved,ltd,2019-04-16,0,2011-11-17,352a Carlton Hill,Nottingham,NG4 1JB,0,0,0,56103,True,11,04,NG4 1JB,52.965980001243764,-1.1106500314132575
194,KPF LTD,7853417,dissolved,ltd,2015-10-11,0,2011-11-18,152 Stoke Newington Road,London,N16 7XA,0,0,0,56103,True,11,10,N16 7XA,51.55544999127994,-0.07434999573712275
195,ANIKA LIMITED,7849048,dissolved,ltd,2015-12-29,0,2011-11-16,Qudnet House Cromwell Industrial Estate,London,E10 7QZ,Staffa Road,0,0,56103,True,11,12,E10 7QZ,51.56931001300427,-0.0374800153251158
196,RAJAH SAPPHIRE LIMITED,7851356,dissolved,ltd,2014-09-23,0,2011-11-17,11 Halliwick Court Parade,London,N12 0NB,Woodhouse Road,0,0,56103,True,11,09,N12 0NB,51.61249999032006,-0.1594399754700362
197,IMPERIAL CHEF LIMITED,7851671,dissolved,ltd,2018-09-01,0,2011-11-17,The Manor House 260 Ecclesall Road South,Sheffield,S11 9PS,0,0,0,56103,True,11,09,S11 9PS,53.35347002062642,-1.5161000385489842
198,THE DELI SANDWICH LTD,7855987,dissolved,ltd,2016-10-05,0,2011-11-22,300 St. Marys Road,Liverpool,L19 0NQ,Garston,0,0,56103,True,11,10,L19 0NQ,53.35925001341815,-2.9088600365952004
199,LITTLE SPROUTS CATERING COMMUNITY INTEREST COMPANY,7803031,dissolved,ltd,2021-07-27,0,2011-10-10,4 Winpenny Close,Yarm,TS15 9XG,0,Cleveland,0,56290,True,10,07,TS15 9XG,54.49982000258743,-1.333640004197889
200,RPS REFRESH LTD,7805132,dissolved,ltd,2015-01-27,0,2011-11-10,22 Wyresdale Crescent,Greenford,UB6 8TH,Perivale,London,0,56290,True,11,01,UB6 8TH,51.53240000900459,-0.3308700119754633
201,GLE SLOANE AVENUE LIMITED,7806737,active,ltd,1970-01-01,United Kingdom,2011-12-10,Flat 1 5 Chelsea Embankment,London,SW3 4LF,Old Ferry House,0,United Kingdom,56290,True,12,01,SW3 4LF,51.48444999078495,-0.15962999321502025
202,BITE IT LTD,7806829,dissolved,ltd,2016-08-03,0,2011-12-10,89 Sycamore Road,Smethwick,B66 4NT,0,West Midlands,0,56290,True,12,08,B66 4NT,52.485349980408955,-1.9621600312935925
203,CLIFTON STREET BAKERY LIMITED,7809610,dissolved,ltd,2021-12-21,England,2011-10-13,"The Annexe, Walton Lodge Hillcliffe Road",Warrington,WA4 6NU,Walton,0,England,56290,True,10,12,WA4 6NU,53.36880999308491,-2.5942299620221547
204,DELICIOUS NUTRITIOUS LIMITED,7810230,dissolved,ltd,2019-01-10,0,2011-10-14,31 Bath Road,Felixstowe,IP11 7JN,0,Suffolk,0,56290,True,10,01,IP11 7JN,51.96375001313339,1.3588800101349534
205,MITHAS CORNER LIMITED,7809192,dissolved,ltd,2015-09-06,0,2011-10-13,47 Scotland Road,Nelson,BB9 7UT,0,0,0,56290,True,10,09,BB9 7UT,53.83813001859846,-2.214379963564852
206,MAITLAND & ASSOCIATES LTD,7802970,dissolved,ltd,2014-04-11,0,2011-10-10,1 Leafield Copse,Bracknell,RG12 9YX,0,Berkshire,0,56290,True,10,04,RG12 9YX,51.40579999489981,-0.7229799687503657
207,F.J.M. TRADING LIMITED,7814378,dissolved,ltd,2018-11-20,0,2011-10-18,258 Leicester Road,Markfield,LE67 9RG,Field Head,Leicestershire,0,56290,True,10,11,LE67 9RG,52.681550007630875,-1.2611600110592178
208,WILKINSON OUTSIDE CATERING LTD,7814684,dissolved,ltd,2021-01-06,0,2011-10-18,Carlyle House,Bolton,BL1 4BY,78 Chorley New Road,Lancs,0,56290,True,10,01,BL1 4BY,53.58131001404547,-2.448010008059441
209,SECURE ANCHORS LTD,7813698,dissolved,ltd,2016-12-20,0,2011-10-18,78 Hartley Road,Nottingham,NG7 3AF,0,0,0,56290,True,10,12,NG7 3AF,52.960710005350734,-1.1744400026157678
210,SARTAJ SWEET CENTRE LIMITED,7813936,dissolved,ltd,2014-07-10,0,2011-10-18,278 Green Lane Road,Leicester,LE5 4PB,0,0,0,56290,True,10,07,LE5 4PB,52.63671998523023,-1.0957399667686616
211,F.E.C. FERRARI ENERGY CORPORATION LIMITED,7815909,dissolved,ltd,2016-12-20,0,2011-10-19,2nd Floor Cambridge House,Harlow,CM20 2EQ,Cambridge Road,Essex,0,56290,True,10,12,CM20 2EQ,51.79088998203673,0.13290002016950098
212,THE OAK BAKERY LIMITED,7817906,active,ltd,1970-01-01,England,2011-10-20,Unit 2.02 High Weald House,Bexhill,TN39 5ES,Glovers End,East Sussex,England,56290,True,10,01,TN39 5ES,50.85698998107435,0.48176002711139176
213,PFCHORLEY LIMITED,7818615,dissolved,ltd,2015-02-17,0,2011-10-21,2nd Floor,London,E1 1JE,112-116 Whitechapel Road,0,0,56290,True,10,02,E1 1JE,51.517979992329145,-0.06407998505238766
214,EXCELLING LIMITED,7825082,dissolved,ltd,2020-11-24,0,2011-10-27,42 Market Street,Peterborough,PE7 1BD,Whittlesey,0,0,56290,True,10,11,PE7 1BD,52.556680018341495,-0.1291600149726264
215,BELVEDERE TRADITIONAL LTD,7826497,dissolved,ltd,2018-02-27,0,2011-10-27,340 Kilburn High Road,London,NW6 2QJ,Kilburn,London,0,56290,True,10,02,NW6 2QJ,51.54604000577052,-0.20245003523419314
216,THE SALISBURY CUPCAKE COMPANY LTD,7827147,dissolved,ltd,2014-09-12,0,2011-10-28,Hardy Cottage,Weymouth,DT3 5LZ,Laurel Lane,Dorset,0,56290,True,10,09,DT3 5LZ,50.6598899889085,-2.4672400217816346
217,EKRAN LIMITED,7826861,dissolved,ltd,2016-12-01,United Kingdom,2011-10-28,"5 The Market, Wrythe Lane",Carshalton,SM5 1AG,0,Surrey,United Kingdom,56290,True,10,12,SM5 1AG,51.38314999704397,-0.18844001935255505
218,ERKAN LIMITED,7826877,dissolved,ltd,2015-02-17,0,2011-10-28,8 High Street,Boston,PE21 8SH,0,Lincolnshire,0,56290,True,10,02,PE21 8SH,52.97645000413826,-0.024480018776131374
219,NMC HALAL FOODS LIMITED,7829773,dissolved,ltd,2021-12-07,0,2011-10-31,Bespoke Insolvency Solutions,Bury,BL9 6DT,Suite 6 1-7 Taylor Street,0,0,56290,True,10,12,BL9 6DT,53.59877999573888,-2.2877500310017354
220,ROWSWELL & LEES LTD,7839882,dissolved,ltd,2015-11-18,United Kingdom,2011-09-11,4th Floor Allan House,London,W1G 0AH,10 John Princes Street,0,United Kingdom,56290,True,09,11,W1G 0,51.516065000000026,-0.1447458449999317
221,SIXPENNY KITCHENS LIMITED,7847208,dissolved,ltd,2018-01-23,England,2011-11-14,Sixpenny Nursery,Devizes,SN10 2LT,Roundway Hill Business Centre,Wiltshire,England,56290,True,11,01,SN10 2LT,51.36777000099784,-1.978989970860539
222,SIMS GLOBAL LIMITED,7846418,dissolved,ltd,2020-10-20,0,2011-11-14,9a High Street,West Drayton,UB7 7QG,0,0,0,56290,True,11,10,UB7 7QG,51.51047001663153,-0.4739999773325394
223,TIFFANY'S SUSSEX LTD,7849225,dissolved,ltd,2014-10-21,United Kingdom,2011-11-16,22 North Road,Brighton,BN1 1YA,0,East Sussex,United Kingdom,56290,True,11,10,BN1 1YA,50.825350014877216,-0.13796998194325738
224,TUBE DINER LIMITED,7848134,dissolved,ltd,2015-05-26,United Kingdom,2011-11-15,26 Berkeley Square,Bristol,BS8 1HP,0,0,United Kingdom,56290,True,11,05,BS8 1HP,51.45516001687159,-2.60540999593465
225,CARTERS TEXAS SMOKEPIT LIMITED,7852175,dissolved,ltd,2021-06-07,0,2011-11-18,Trafalgar House 223,Portsmouth,PO6 4PY,Southampton Road,0,0,56290,True,11,06,PO6 4PY,50.847039991452846,-1.1152299871273499
226,S&S (GB) LTD,7850156,dissolved,ltd,2018-04-24,England,2011-11-16,11 Osborne Close,Beckenham,BR3 3RH,0,0,England,56290,True,11,04,BR3 3RH,51.39660999243921,-0.04188998604280414
227,UPPERCRUST (LITTLEHAMPTON) LTD,7856780,dissolved,ltd,2019-01-15,0,2011-11-22,9 Vinnetrow Business Park,Chichester,PO20 1QH,Vinnetrow Road,West Sussex,0,56290,True,11,01,PO20 1QH,50.82358998284843,-0.7511500365804693
